{"110000":{"cities":{"110102":{"providers":[{"sup_id":"26","province":"110000","city":"110102","address":"\u5317\u4eac\u5e02\u897f\u57ce\u533a\u5ba3\u6b66\u95e8\u5185\u5927\u8857\u897f\u7ed2\u7ebf\u80e1\u540c28\u53f7\uff0c\u5929\u5b89\u5929\u5730","parkingnum":"2","longitude":"116.38263","latitude":"39.909605","time":"24\u5c0f\u65f6\/\u5929","is_delete":"0","detailedaddress":"\u5317\u4eac\u5e02\u897f\u57ce\u533a\u5ba3\u5185\u5927\u8857\u897f\u7ed2\u7ebf\u80e1\u540c28\u53f7\uff0c\u5929\u5b89\u5929\u5730","opened":"1","detailpage":"http:\/\/www.teslamotors.com\/cn\/supercharger\/beijingtianantiandi"}],"name":"\u897f\u57ce","longitude":"116.37319","latitude":"39.93428"},"110105":{"providers":[{"sup_id":"1","province":"110000","city":"110105","address":"\u9152\u4ed9\u6865\u8def10\u53f7\u6052\u901a\u5546\u52a1\u56edB12D\uff0c\u7279\u65af\u62c9\u4e2d\u56fd\u603b\u90e8","parkingnum":"2","longitude":"116.499252","latitude":"39.983353","time":"24\u5c0f\u65f6\/\u5929","is_delete":"0","detailedaddress":"\u671d\u9633\u533a\u9152\u4ed9\u6865\u8def 10 \u53f7\u6052\u901a\u5546\u52a1\u56ed B12D\uff0c\u7279\u65af\u62c9\u4e2d\u56fd\u603b\u90e8","opened":"1","detailpage":"http:\/\/www.teslamotors.com\/cn\/supercharger\/beijingubp"}],"name":"\u671d\u9633","longitude":"116.521695","latitude":"39.958953"},"110108":{"providers":[{"sup_id":"21","province":"110000","city":"110108","address":"\u677f\u4e95\u8def69-1\u53f7","parkingnum":"2","longitude":"116.288194","latitude":"39.957437","time":"24\u5c0f\u65f6\/\u5929","is_delete":"0","detailedaddress":"\u5317\u4eac\u5e02\u6d77\u6dc0\u533a\u677f\u4e95\u8def69-1\uff0c\u9ed1\u767d\u683c\u6d17\u8f66\u5e97 ","opened":"1","detailpage":"http:\/\/www.teslamotors.com\/cn\/supercharger\/beijingbwc"}],"name":"\u6d77\u6dc0","longitude":"116.239678","latitude":"40.033162"},"110115":{"providers":[{"sup_id":"8","province":"110000","city":"110115","address":"\u4ea6\u5e84\u7ecf\u6d4e\u6280\u672f\u5f00\u53d1\u533a\u4e2d\u548c\u885716\u53f7","parkingnum":"4","longitude":"116.524237","latitude":"39.8061","time":"24\u5c0f\u65f6\/\u5929","is_delete":"0","detailedaddress":"\u5927\u5174\u533a\u4ea6\u5e84\u4e2d\u548c\u885716\u53f7\uff0c\u7279\u65af\u62c9\u670d\u52a1\u4e2d\u5fc3","opened":"1","detailpage":"http:\/\/www.teslamotors.com\/cn\/supercharger\/beijingharmony"}],"name":"\u5927\u5174","longitude":"116.425195","latitude":"39.65279"}},"name":"\u5317\u4eac","longitude":"116.395645","latitude":"39.929986"},"310000":{"cities":{"310112":{"providers":[{"sup_id":"15","province":"310000","city":"310112","address":"\u83b2\u82b1\u5357\u8def2338\u53f7","parkingnum":"2","longitude":"121.434575","latitude":"31.076287","time":"24\u5c0f\u65f6\/\u5929","is_delete":"0","detailedaddress":"\u4e0a\u6d77\u5e02\u95f5\u884c\u533a\u83b2\u82b1\u5357\u8def2338\u53f7\uff0c\u7279\u65af\u62c9\u670d\u52a1\u4e2d\u5fc3","opened":"1","detailpage":"http:\/\/www.teslamotors.com\/cn\/supercharger\/shanghaiminhang"}],"name":"\u95f5\u884c","longitude":"121.425024","latitude":"31.093538"},"310114":{"providers":[{"sup_id":"13","province":"310000","city":"310114","address":"\u5b89\u4ead\u4e0a\u6d77\u56fd\u9645\u6c7d\u8f66\u57ce","parkingnum":"6","longitude":"121.173937","latitude":"31.285578","time":"24\u5c0f\u65f6\/\u5929","is_delete":"0","detailedaddress":"\u4e0a\u6d77\u5e02\u5609\u5b9a\u533a\u5b89\u4ead\u535a\u56ed\u8def7555\u53f7\uff0c\u4e0a\u6d77\u56fd\u9645\u6c7d\u8f66\u57ce","opened":"1","detailpage":"http:\/\/www.teslamotors.com\/cn\/supercharger\/jiading"}],"name":"\u5609\u5b9a","longitude":"121.251014","latitude":"31.364338"},"310115":{"providers":[{"sup_id":"14","province":"310000","city":"310115","address":"\u84dd\u5929\u8def 518 \u53f7\uff0c\u7279\u65af\u62c9\u91d1\u6865\u5c55\u793a\u5385","parkingnum":"6","longitude":"121.586339","latitude":"31.247074","time":"24\u5c0f\u65f6\/\u5929","is_delete":"0","detailedaddress":"\u4e0a\u6d77\u5e02\u6d66\u4e1c\u65b0\u533a\u84dd\u5929\u8def518\u53f7\uff0c\u7279\u65af\u62c9\u91d1\u6865\u5c55\u793a\u5385","opened":"1","detailpage":"http:\/\/www.teslamotors.com\/cn\/supercharger\/jinqiao"}],"name":"\u6d66\u4e1c","longitude":"121.638481","latitude":"31.230895"}},"name":"\u4e0a\u6d77","longitude":"121.487899","latitude":"31.249162"},"320000":{"cities":{"320100":{"providers":[{"sup_id":"16","province":"320000","city":"320100","address":"\u96e8\u82b1\u53f0\u533a\u8f6f\u4ef6\u5927\u9053119\u53f7\uff0c\u4e30\u76db\u5546\u6c47","parkingnum":"6","longitude":"118.767322","latitude":"31.981574","time":"24\u5c0f\u65f6\/\u5929","is_delete":"0","detailedaddress":"\u5357\u4eac\u5e02\u96e8\u82b1\u53f0\u533a\u8f6f\u4ef6\u5927\u9053119\u53f7\uff0c\u4e30\u76db\u5546\u6c47","opened":"1","detailpage":"http:\/\/www.teslamotors.com\/cn\/supercharger\/nanjingfullshare"},{"sup_id":"25","province":"320000","city":"320100","address":"\u534e\u535a\u667a\u6167\u56ed","parkingnum":"2","longitude":"118.781667","latitude":"31.980275","time":"24\u5c0f\u65f6\/\u5929","is_delete":"0","detailedaddress":"\u5357\u4eac\u5e02\u96e8\u82b1\u53f0\u533a\u82b1\u795e\u5927\u905317\u53f7\uff0c\u534e\u535a\u667a\u6167\u56ed","opened":"1","detailpage":"http:\/\/www.teslamotors.com\/cn\/supercharger\/nanjingyuhuatai"}],"name":"\u5357\u4eac","longitude":"118.778074","latitude":"32.057236"}},"name":"\u6c5f\u82cf","longitude":"119.368489","latitude":"33.013797"},"330000":{"cities":{"330100":{"providers":[{"sup_id":"9","province":"330000","city":"330100","address":"\u4e0b\u57ce\u533a\u767d\u77f3\u8def129\u53f7\uff0c\u57ce\u5317\u4f53\u80b2\u516c\u56ed","parkingnum":"8","longitude":"120.171229","latitude":"30.319473","time":"24\u5c0f\u65f6\/\u5929","is_delete":"0","detailedaddress":"\u676d\u5dde\u5e02\u4e0b\u57ce\u533a\u767d\u77f3\u8def129\u53f7\uff0c\u57ce\u5317\u4f53\u80b2\u516c\u56ed","opened":"1","detailpage":"http:\/\/www.teslamotors.com\/cn\/supercharger\/hangzhouxiacheng"},{"sup_id":"10","province":"330000","city":"330100","address":"\u897f\u6e56\u533a\u66d9\u5149\u8def 120\u53f7, \u676d\u5dde\u9ec4\u9f99\u996d\u5e97","parkingnum":"6","longitude":"120.15048","latitude":"30.272788","time":"24\u5c0f\u65f6\/\u5929","is_delete":"0","detailedaddress":"\u676d\u5dde\u5e02\u897f\u6e56\u533a\u66d9\u5149\u8def120\u53f7\uff0c\u676d\u5dde\u9ec4\u9f99\u996d\u5e97","opened":"1","detailpage":"http:\/\/www.teslamotors.com\/cn\/supercharger\/hangzhouhuanglong"},{"sup_id":"11","province":"330000","city":"330100","address":"\u6ee8\u6c5f\u533a\u6c5f\u9675\u8def88\u53f7","parkingnum":"4","longitude":"120.224582","latitude":"30.184287","time":"24\u5c0f\u65f6\/\u5929","is_delete":"0","detailedaddress":"\u6d59\u6c5f\u7701\u676d\u5dde\u5e02\u6ee8\u6c5f\u533a\u6c5f\u9675\u8def88\u53f7\uff0c\u7279\u65af\u62c9\u670d\u52a1\u4e2d\u5fc3","opened":"1","detailpage":"http:\/\/www.teslamotors.com\/cn\/supercharger\/hangzhouservicecenter"},{"sup_id":"12","province":"330000","city":"330100","address":"\u897f\u6e56\u533a\u6559\u5de5\u8def18\u53f7\uff0c\u6b27\u7f8e\u4e2d\u5fc3","parkingnum":"2","longitude":"120.144231","latitude":"30.278947","time":"24\u5c0f\u65f6\/\u5929","is_delete":"0","detailedaddress":"\u676d\u5dde\u5e02\u897f\u6e56\u533a\u6559\u5de5\u8def18\u53f7\uff0c\u6b27\u7f8e\u4e2d\u5fc3","opened":"1","detailpage":"http:\/\/www.teslamotors.com\/cn\/supercharger\/hangzhoueac"}],"name":"\u676d\u5dde","longitude":"120.219375","latitude":"30.259244"}},"name":"\u6d59\u6c5f","longitude":"119.957202","latitude":"29.159494"},"440000":{"cities":{"440300":{"providers":[{"sup_id":"17","province":"440000","city":"440300","address":"\u9f99\u534e\u65b0\u533a\u6c11\u6cbb\u6c11\u5eb7\u8def1\u53f7\u534e\u5357\u7269\u6d41\u56ed\uff0c\u7279\u65af\u62c9\u670d\u52a1\u4e2d\u5fc3","parkingnum":"6","longitude":"114.061229","latitude":"22.623199","time":"24\u5c0f\u65f6\/\u5929","is_delete":"0","detailedaddress":"\u6df1\u5733\u5e02\u9f99\u534e\u65b0\u533a\u6c11\u6cbb\u6c11\u5eb7\u8def1\u53f7\u534e\u5357\u7269\u6d41\u56ed\uff0c\u7279\u65af\u62c9\u670d\u52a1\u4e2d\u5fc3","opened":"1","detailpage":"http:\/\/www.teslamotors.com\/cn\/supercharger\/shenzhen"}],"name":"\u6df1\u5733","longitude":"114.025974","latitude":"22.546054"}},"name":"\u5e7f\u4e1c","longitude":"113.394818","latitude":"23.408004"},"500000":{"cities":{"500112":{"providers":[{"sup_id":"23","province":"500000","city":"500112","address":"\u6d2a\u6e56\u4e1c\u8def9\u53f7\uff0c\u8d22\u5bcc\u5927\u53a6","parkingnum":"6","longitude":"106.515881","latitude":"29.613812","time":"24\u5c0f\u65f6\/\u5929","is_delete":"0","detailedaddress":"\u91cd\u5e86\u5e02\u6e1d\u5317\u533a\u6d2a\u6e56\u4e1c\u8def9\u53f7\uff0c\u8d22\u5bcc\u5927\u53a6","opened":"1","detailpage":"http:\/\/www.teslamotors.com\/cn\/supercharger\/chongqingfp"}],"name":"\u6e1d\u5317","longitude":"106.753799","latitude":"29.816264"}},"name":"\u91cd\u5e86","longitude":"106.530635","latitude":"29.544606"},"510000":{"cities":{"510100":{"providers":[{"sup_id":"20","province":"510000","city":"510100","address":"\u9ad8\u65b0\u533a\u5929\u5e9c\u5927\u9053\u5317\u6bb516\u53f7\u8054\u901a\u8425\u4e1a\u5385","parkingnum":"2","longitude":"104.073777","latitude":"30.598984","time":"24\u5c0f\u65f6\/\u5929","is_delete":"0","detailedaddress":"\u6210\u90fd\u5e02\u9ad8\u65b0\u533a\u5929\u5e9c\u5927\u9053\u5317\u6bb516\u53f7\uff0c\u8054\u901a\u8425\u4e1a\u5385","opened":"1","detailpage":"http:\/\/www.teslamotors.com\/cn\/supercharger\/chengduunicom"},{"sup_id":"22","province":"510000","city":"510100","address":"\u9526\u6c5f\u533a\u4eba\u6c11\u5357\u8def\u4e8c\u6bb51\u53f7\uff0c\u4ec1\u6052\u7f6e\u5730\u5e7f\u573a","parkingnum":"4","longitude":"104.073464","latitude":"30.657641","time":"24\u5c0f\u65f6\/\u5929","is_delete":"0","detailedaddress":"\u6210\u90fd\u4eba\u6c11\u5357\u8def\u4e8c\u6bb51\u53f7\uff0c\u4ec1\u6052\u7f6e\u5730\u5e7f\u573a","opened":"1","detailpage":"http:\/\/www.teslamotors.com\/cn\/supercharger\/chengdurenheng"},{"sup_id":"24","province":"510000","city":"510100","address":"\u9ad8\u65b0\u533a\u5929\u5e9c\u5927\u9053\u5317\u6bb51199\u53f7\uff0c\u94f6\u6cf0\u4e2d\u5fc3","parkingnum":"6","longitude":"104.075149","latitude":"30.591775","time":"24\u5c0f\u65f6\/\u5929","is_delete":"0","detailedaddress":"\u56db\u5ddd\u7701\u6210\u90fd\u5e02\u9ad8\u65b0\u533a\u5929\u5e9c\u5927\u9053\u5317\u6bb51199\u53f7\uff0c\u94f6\u6cf0\u4e2d\u5fc3","opened":"1","detailpage":"http:\/\/www.teslamotors.com\/cn\/supercharger\/chengduhitech"}],"name":"\u6210\u90fd","longitude":"104.067923","latitude":"30.679943"}},"name":"\u56db\u5ddd","longitude":"102.89916","latitude":"30.367481"}}
